     3.03           OBSERVATION DATA    M                   RINEX VERSION / TYPE
GnssLogger          Google 13           20230714 055659 UTC PGM / RUN BY / DATE
Google GnssLogger                                           MARKER NAME
Unknown                                                     MARKER NUMBER
Unknown             Unknown                                 OBSERVER / AGENCY
Unknown             GnssLogger          v3.0.6.3            REC # / TYPE / VERS
Unknown             Unknown                                 ANT # / TYPE
        0.0000        0.0000        0.0000                  ANTENNA: DELTA H/E/N
G    8 C1C L1C D1C S1C C5Q L5Q D5Q S5Q                      SYS / # / OBS TYPES
R    4 C1C L1C D1C S1C                                      SYS / # / OBS TYPES
C    8 C2I L2I D2I S2I C7Q L7Q D7Q S7Q                      SYS / # / OBS TYPES
E    8 C1C L1C D1C S1C C5Q L5Q D5Q S5Q                      SYS / # / OBS TYPES
  2023    07    14    05    56   59.0000000     GPS         TIME OF FIRST OBS
 6 R12 -1 R13 -2 R14 -7 R22 -3 R23  3 R24  2                GLONASS SLOT / FRQ #
G L1C                                                       SYS / PHASE SHIFT
G L5Q  0.00000                                              SYS / PHASE SHIFT
R L1C                                                       SYS / PHASE SHIFT
C L2I                                                       SYS / PHASE SHIFT
C L7Q  0.00000                                              SYS / PHASE SHIFT
E L1C  0.00000                                              SYS / PHASE SHIFT
E L5Q  0.00000                                              SYS / PHASE SHIFT
 C1C    0.000 C1P    0.000 C2C    0.000 C2P    0.000        GLONASS COD/PHS/BIS
                                                            END OF HEADER
> 2023 07 14 05 56 59.0855938  0 18                      
G05  23704289.26223       500.30423      -767.80423        21.10323                                                                
G18  21163454.64525     -5211.68225       750.88225        31.79725  21163269.97305     -3911.25705       560.78105        34.43305
G26  20275872.30627      2500.43927      -335.93627        42.18527  20275696.32806      2735.93506      -251.22306        37.05206
G29  22069304.83806     28504.29306     -3616.84206        35.67906                                                                
G31  21741489.58027     24536.23827     -3128.89827        42.21727                                                                
R22  20366200.97226     28978.54826     -3771.57326        36.15426
R13  19175664.26424      8880.66224     -1098.54324        24.55324
R12  21055405.84625     34172.29025     -4449.09725        32.99325
R24  22962343.10114    -15578.00014      3104.12914        25.22414
R23  19488301.92926     -4587.71226       585.77726        40.05926
C11  22363202.77725     19375.90425     -2811.93325        34.15525
C23  22552154.76826   1379096.80026     -2682.18826        36.12426
C28  23752090.27024     -9983.55224      1765.25624        27.45424
C34  24008428.71127     13692.80727     -3713.59027        41.51327
C43  21600995.14225     10234.57325     -1319.46525        33.59825
E02  23506821.96606     13291.83906     -1976.55406        36.56906  23506644.48905     11764.41405     -1475.88105        30.77305
E30  24441915.41405     -3343.82705       717.49805        30.00905                                                                
E34  25490993.55205     -6560.66605      1820.22705        32.06005  25490822.97005     -4911.48305      1359.49205        30.89205
> 2023 07 14 05 57 00.0855930  0 20                      
G18  21163107.18625     -5962.24825       751.11925        31.01725  21162917.11705     -4471.51705       559.77705        34.72805
G20  24610533.08223      3850.27023     -2591.21723        21.03823                                                                
G26  20275727.20627      2837.09027      -337.49327        42.18527  20275550.02906      2987.37006      -252.46206        37.44406
G29  22069789.00306     32121.53206     -3617.58006        35.53406                                                                
G31  21741873.31427     27665.65327     -3129.80727        43.44227                                                                
R14  21976658.77623    -15641.92823      2737.35123        20.06223
R22  20366706.42326     32750.63126     -3772.84526        36.28526
R13  19175655.27024      9976.03924     -1100.82024        24.80724
R12  21056022.51925     38622.26825     -4450.56625        34.21325
R24  22961537.55814    -18681.01314      3098.77814        25.48114
R23  19487989.84526     -5172.74926       584.05926        39.74526
C11  22363534.04825     22188.42525     -2813.90925        33.53525
C23  22552462.05525   1381780.24625     -2686.34025        34.65125
C28  23751535.95424    -11747.50424      1764.33824        28.04024
C34  24008930.26326     17406.87626     -3714.63526        41.44126
C43  21601035.91425     11554.41025     -1320.62225        33.61525
E02  23506985.65206     15268.60006     -1976.80106        36.83606  23506810.57405     13240.63005     -1476.34805        31.92305
E30  24441572.15204     -4061.03404       716.26504        29.24504                                                                
E34  25490441.03505     -8380.72705      1819.48005        31.44305  25490267.45505     -6270.58005      1358.63705        31.37105
E36  23717205.82024      4059.80524      -730.65824        28.49424                                                                
> 2023 07 14 05 57 00.9995925  0 20                      
G05  23704175.94023      2737.62523      -768.67223        19.93023                                                                
G18  21162791.20505     -6646.45905       748.76305        31.24305  21162605.63305     -4982.85105       559.07405        33.60505
G26  20275608.48806      3146.11906      -337.87006        40.92306  20275428.91306      3217.72706      -252.23706        39.01006
G29  22070241.98905     35428.48605     -3618.33705        34.70505                                                                
G31  21742238.16208     30527.53308     -3130.82008        48.04608                                                                
R14  21976101.46223    -18142.27723      2736.84123        19.94623
R22  20367176.49726     36199.17626     -3773.05526        36.44526
R13  19175656.76924     10981.20924     -1102.44024        24.14024
R12  21056592.12526     42690.60526     -4451.41626        40.59426
R24  22960805.46524    -21516.20824      3106.58524        24.39324
R23  19487729.92515     -5705.09015       588.78715        34.25015
C11  22363845.83225     24759.59125     -2813.19625        32.96525
C23  22552745.35926   1384233.23126     -2684.21126        37.87326
C28  23751040.39725    -13358.93725      1762.78325        31.47825
C34  24009409.93126     20802.06126     -3714.33526        38.88826
C43  21601085.08025     12761.60825     -1321.02825        31.34525
E02  23507146.94106     17076.31006     -1977.86406        37.13406  23506973.96105     14590.49905     -1476.86305        32.15505
E30  24441290.64704     -4715.91104       715.78404        26.05104                                                                
E34  25489944.57924    -10043.54524      1819.59324        28.14424  25489770.09905     -7512.23505      1358.38705        32.39205
E36  23717152.45724      4711.24024      -730.81224        24.83024                                                                
> 2023 07 14 05 57 01.9995919  0 22                      
G05  23704125.87523      3515.43623      -769.77823        19.16923                                                                
G16  21843918.77023     -1954.04923      1667.31523        20.76123                                                                
G18  21162462.33205     -7395.17405       748.16505        33.42205  21162283.05605     -5542.30805       559.61405        32.45405
G20  24611146.45823     11397.49223     -2595.32023        21.58523                                                                
G26  20275491.86906      3484.22206      -338.71406        41.24506  20275313.49306      3470.14406      -252.62406        39.84706
G29  22070756.43305     39047.17305     -3620.59705        33.30005                                                                
G31  21742656.67207     33658.24107     -3130.58707        46.84207                                                                
R14  21975411.93923    -20876.96523      2736.84123        19.52423
R22  20367703.83225     39972.43925     -3773.12825        33.59525
R13  19175687.34823     12081.42123     -1104.62723        23.26223
R12  21057240.57626     47141.67226     -4451.49026        39.32226
R24  22960037.09723    -24620.15523      3105.01923        21.19923
R23  19487429.53325     -6291.01925       582.43825        35.09425
C11  22364204.08425     27572.87025     -2813.87325        30.46525                                                                
C23  22553086.82326   1386917.48226     -2684.48326        37.61326                                                                
C28  23750519.05825    -15121.77725      1762.60125        30.90825                                                                
C34  24009936.36726     24517.22126     -3716.12326        37.58826                                                                
C43  21601150.43525     14082.89325     -1321.36625        34.46125  21601131.24805     10902.64405      -996.12105        30.01205
E02  23507342.40505     19053.94505     -1977.70605        34.96205  23507175.42105     16067.33105     -1477.12405        31.53605
E30  24440956.37804     -5432.32704       716.08504        27.44604                                                                
E34  25489415.74505    -11862.72105      1819.62005        30.91105  25489243.96405     -8870.68905      1359.04005        32.03705
E36  23717103.29124      5418.18524      -729.78124        25.67124                                                                
> 2023 07 14 05 57 02.9995912  0 19                      
G05  23704008.35623      4287.65723      -773.65723        19.52623                                                                
G16  21843417.51724     -5282.99324      1662.25324        28.69024                                                                
G18  21162107.97705     -8142.85305       746.65205        33.03005  21161940.39405     -6100.32805       557.44605        31.48105
G20  24611429.16223     13992.11023     -2596.67023        21.60223                                                                
G26  20275344.07106      3823.58506      -339.89106        40.95806  20275168.09306      3723.58806      -253.68206        37.68206
G29  22071227.70705     42666.46905     -3619.83405        32.15405                                                                
G31  21743039.80707     36790.36607     -3133.01707        44.34707                                                                
R22  20368193.09315     43746.80815     -3775.62515        30.03915
R13  19175677.75523     13180.21223     -1105.78323        21.54923
R23  19487101.26125     -6872.72125       581.02125        34.71925
C11  22364535.35425     30387.57525     -2815.00125        30.36225                                                                
C23  22553395.90927   1389602.95727     -2686.00527        43.28727  22553366.52905     26115.23905     -2024.44905        30.76705
C28  23749953.94925    -16883.81125      1761.73025        32.94525                                                                
C34  24010450.81125     28233.26025     -3715.89925        34.05025  24010425.32824     24923.19324     -2799.41324        24.61924
C43  21601201.39926     15405.26826     -1322.65026        35.68726  21601169.92104     11899.29704      -996.31404        27.39004
E02  23507512.68805     21033.04905     -1980.21305        30.76905  23507346.00305     17545.03605     -1477.52405        32.43505
E30  24440601.72424     -6147.36624       717.34024        24.59124                                                                
E34  25488860.22905    -13680.98505      1817.93605        29.79405  25488686.64904    -10228.59504      1357.48904        27.75904
E36  23717030.74124      6148.43724      -731.08324        26.78724                                                                
> 2023 07 14 05 57 03.9995906  0 20                      
G05  23703958.89124      5069.86024      -776.18824        24.85924                                                                
G16  21842920.46114     -6944.81714      1661.69714        28.19114                                                                
G18  21161786.60015     -8888.92515       745.87615        29.84815  21161619.01605     -6657.67505       556.75505        32.50105
G20  24611750.54023     16592.83123     -2596.80223        21.94123                                                                
G26  20275227.45206      4163.62706      -341.52406        41.00806  20275054.47206      3977.57306      -254.48706        40.46306
G29  22071736.45515     46285.39915     -3617.19615        30.41615                                                                
G31  21743461.91507     39923.78007     -3133.72507        44.56407                                                                
R22  20368709.03614     47522.30614     -3776.52514        26.22314
R13  19175698.74024     14278.66724     -1106.75524        26.05524
R23  19486815.85826     -7453.07426       580.08926        39.69026
C11  22365056.09405     33203.07905     -2815.87305        33.17305                                                                
C23  22553883.07206   1392289.69806     -2687.70006        39.23906  22553704.09605     28139.52105     -2025.05205        31.87905
C28  23749439.20525    -18645.18125      1760.04625        30.28525                                                                
C34  24010990.43725     31949.33325     -3717.12725        32.69525  24010959.25904     27723.52104     -2800.57504        28.85504
C37  23039176.91024     -2686.49724       532.67624        26.22324                                                                
C43  21601430.14125     16728.49125     -1324.07825        35.35025  21601247.86705     12896.32905      -997.45005        30.88105
E02  23507694.96105     23012.89905     -1979.89605        33.52505  23507542.36705     19023.59605     -1478.50205        31.61505
E30  24440290.53904     -6862.30204       713.83004        28.17904                                                                
E34  25488328.39705    -15498.11205      1816.99005        33.83005  25488161.41304    -11585.42904      1356.82804        27.88704
E36  23716988.17124      6878.82924      -729.04424        24.34224                                                                
> 2023 07 14 05 57 04.9995899  0 20                      
G05  23703940.30424      5844.64324      -773.68224        24.26124                                                                
G16  21842405.71724     -8606.76224      1664.97124        25.95724                                                                
G18  21161470.61905     -9634.43705       744.61705        30.61705  21161295.84005     -7214.14105       555.71905        31.99605
G20  24612067.12023     19192.58123     -2599.20223        19.17523                                                                
G26  20275108.13506      4504.61806      -341.90606        40.66106  20274938.75206      4232.06906      -255.08706        40.77306
G29  22072219.12125     49913.69225     -3620.58925        30.61725                                                                
G31  21743872.93007     43057.71807     -3134.62707        45.75407                                                                
R22  20369211.78814     51299.47314     -3780.96614        26.58714
R13  19175738.91224     15382.94724     -1109.57224        27.31524
R23  19486526.55827     -8032.81527       578.96727        42.08527
C11  22365418.54325     36018.31125     -2816.01925        32.29525                                                                
C23  22554220.33805   1394976.75805     -2688.48705        35.24605  22554041.36205     30164.32205     -2025.05605        32.85305
C28  23748906.47424    -20406.42124      1760.54424        29.18424  23748883.09004    -14525.20104      1326.35604        27.50204
C34  24011515.97326     35666.22026     -3717.88826        35.90226  24011493.78904     30524.47004     -2801.70604        28.96604
C37  23038932.27924     -3224.30624       518.74524        28.52924                                                                
C43  21601501.49226     18052.10726     -1324.16826        36.51326  21601323.41505     13893.91405      -998.50905        33.53305
E02  23507894.62305     24993.58905     -1981.76305        32.50305  23507728.23805     20502.59305     -1479.13005        30.36105
E30  24439963.76505     -7576.67905       714.18605        31.72205                                                                
E34  25487803.46105    -17315.27305      1816.32105        35.08005  25487635.27705    -12942.32105      1356.25105        30.59005
E36  23716954.29424      7604.07424      -729.67324        24.25424  23716778.61624      5132.15524      -546.43024        25.00224
> 2023 07 14 05 57 05.9995893  0 20                      
G05  23703874.64923      6625.35323      -774.95723        23.31823                                                                
G16  21841880.48124    -10267.77224      1664.50224        25.24724                                                                
G18  21161115.06505    -10379.25505       745.03005        33.45605  21160940.88505     -7770.21805       555.92105        31.93305
G20  24612390.29723     21792.97923     -2598.76223        18.78023                                                                
G26  20274964.83406      4846.36106      -341.94806        41.17806  20274794.25206      4487.22306      -254.98306        39.30506
G29  22072726.66925     53537.41725     -3618.98225        34.92225                                                                
G31  21744259.06307     46192.38207     -3134.77207        45.55007                                                                
R22  20369772.10025     55076.81725     -3777.29825        30.64325
R13  19175689.14724     16492.95124     -1115.37624        23.94324
R23  19486196.18726     -8611.52526       578.03626        37.65426
C11  22365743.51826     38834.73526     -2816.11326        35.96026                                                                
C23  22554525.22706   1397664.40106     -2687.68406        36.44006  22554346.85104     32189.83804     -2025.44904        29.27704
C28  23748368.04724    -22167.48024      1758.96924        25.74624  23748337.16804    -15851.83404      1326.49004        28.54404
C34  24012014.82826     39383.47826     -3716.89626        36.65026  24011998.93904     33325.62704     -2800.75804        26.32204
C37  23038629.18924     -3742.75824       518.65324        28.42624                                                                
C43  21601539.26625     19376.39125     -1324.73725        34.28625  21601367.48405     14892.03405      -998.22905        30.56705
E02  23508040.62204     26974.40604     -1980.36704        28.73804  23507900.61904     21981.85004     -1478.94104        28.59104
E30  24439619.00424     -8289.84524       710.93324        26.95324                                                                
E34  25487250.04405    -19131.91805      1816.65605        33.11305  25487078.86205    -14298.90605      1356.38205        30.08605
E36  23716879.64624      8321.84324      -731.06624        28.23524  23716707.56523      5678.30623      -546.75223        22.48523
> 2023 07 14 05 57 06.9995887  0 20                      
G05  23703845.86923      7409.36023      -776.94623        20.78623                                                                
G16  21841386.12324    -11928.12824      1663.16624        24.70624                                                                
G18  21160792.78805    -11123.18705       742.90105        33.59305  21160618.60905     -8325.93505       555.04005        30.69405
G20  24612701.48123     24395.99723     -2599.99723        18.26923                                                                
G26  20274848.21506      5188.51606      -342.91706        41.01006  20274678.83206      4742.90006      -256.30006        39.19006
G29  22073228.52205     57159.13505     -3621.77105        34.77205                                                                
G31  21744675.47407     49327.78907     -3135.74907        45.22807                                                                
R22  20370259.86324     58854.32424     -3775.17124        28.46124
R13  19175718.22723     17606.18923     -1117.53923        20.65123
R23  19485910.48525     -9189.04425       576.02825        33.58825
C11  22366102.37025     41651.38425     -2816.89725        35.08325                                                                
C23  22554860.99506   1400352.74406     -2688.79406        38.07906  22554682.91804     34215.88704     -2027.47604        27.11204
C28  23747858.99924    -23926.65224      1758.78524        23.78824  23747819.42704    -17178.14704      1325.87104        28.13004
C34  24012544.56126     43100.72126     -3717.75726        35.68126  24012532.86914     36126.89614     -2799.28714        23.97414
C37  23038349.18325     -4260.45825       517.19625        29.97825  23038318.00424     -9515.33024       390.64124        24.11024
C43  21601607.31825     20701.24525     -1325.10425        32.64725  21601441.53304     15890.60704      -998.25604        27.96504
E02  23508253.47504     28955.60404     -1981.45904        28.01304  23508096.08404     23461.40204     -1479.98504        29.44704
E30  24439296.42724     -9002.24724       710.76724        25.19424                                                                
E34  25486726.90605    -20947.97305      1815.68305        32.93405  25486553.92604    -15655.09304      1356.13704        29.46904
E36  23716830.18024      9040.55924      -732.18324        28.61124                                                                
> 2023 07 14 05 57 07.9995880  0 20                      
G05  23703785.31123      8193.06623      -778.87323        19.94223                                                                
G16  21840862.68524    -13587.91524      1662.64624        25.09624                                                                
G18  21160438.13405    -11866.48305       742.74805        33.44605  21160262.15505     -8880.88805       555.14905        30.61005
G20  24613023.15923     27000.08823     -2599.99723        18.07223                                                                
G26  20274698.01906      5531.69506      -343.48106        37.26706  20274534.33206      4999.10106      -256.53706        38.44406
G29  22073702.19405     60780.92705     -3621.88605        32.29805                                                                
G31  21745062.20707     52463.98207     -3136.42007        45.39707                                                                
R22  20370742.52824     62632.93024     -3779.16724        29.09824
R13  19175727.52024     18726.49924     -1116.32324        24.23524
R23  19485606.79525     -9765.65025       576.59825        30.98125
C11  22366430.04326     44468.70426     -2817.38326        36.36526                                                                
C23  22555173.37807   1403041.84507     -2689.33807        42.46407  22554987.50704     36242.35204     -2026.41604        25.72404
C28  23747311.27823    -25678.36323      1759.08423        23.33123  23747272.00604    -18504.07604      1326.07604        28.39504
C34  24013065.30126     46818.45426     -3718.03626        38.95226  24013039.51904     38928.75204     -2802.23304        24.48704
C37  23038029.90425     -4777.49425       516.79525        31.21725  23038007.12024     -9904.89424       389.68224        24.28624
C43  21601693.95825     22026.98425     -1325.86025        31.74525  21601487.70104     16889.67004      -998.71904        28.40004
E02  23508426.75504     30937.48404     -1981.94604        28.69204  23508264.26704     24941.31004     -1479.41804        29.32704
E30  24438947.46923     -9716.11823       712.27523        21.94823                                                                
E34  25486172.29005    -22763.49505      1815.43005        32.00205  25485999.01004    -17010.83004      1356.06004        29.12004
E36  23716767.22404      9773.32504      -733.15704        27.61204  23716594.84323      6772.53723      -546.75923        22.56423
> 2023 07 14 05 57 08.9995874  0 19                      
G05  23703751.43423      8970.23723      -779.57423        20.60123                                                                
G16  21840365.62923    -15246.95923      1661.42923        21.61823                                                                
G18  21160118.85505    -12609.22805       742.73605        34.31005  21159941.67705     -9435.49805       554.60605        29.79105
G26  20274593.69106      5875.26906      -343.87906        39.61306  20274420.11106      5255.63906      -256.73306        40.37306
G29  22074218.13705     64402.88805     -3622.29005        32.61305                                                                
G31  21745478.31907     55600.51807     -3136.62307        46.34907                                                                
R22  20371280.95624     66412.04024     -3779.14724        28.61224
R13  19175758.09923     19844.74823     -1115.15523        22.15223
R23  19485316.89625    -10342.00825       575.88425        33.97625
C11  22366791.29305     47286.47205     -2818.12805        35.31905                                                                
C23  22555506.74806   1405731.24306     -2689.63706        41.15306  22555325.07304     38269.05104     -2027.14604        24.67204
C28  23746792.63824    -27437.52224      1759.24524        24.21624  23746752.76504    -19829.83504      1325.74604        29.07604
C34  24013589.93826     50536.66226     -3718.58126        36.98826  24013576.44704     41730.77004     -2802.17404        25.39204
C37  23037753.49525     -5294.18625       516.31225        30.88425  23037728.61224    -10294.23824       389.55524        24.52624
C43  21601714.64405     23353.80605     -1325.82705        30.24505  21601563.24904     17889.00904      -999.19704        29.01504
E02  23508625.51705     32919.63705     -1982.23105        29.96805  23508463.03005     26421.49605     -1480.60805        29.57005
E30  24438633.88623    -10435.22123       712.34023        21.98223                                                                
E34  25485647.05405    -24579.02505      1815.45605        32.87305  25485474.97305    -18366.57105      1355.97305        30.21705
E36  23716708.46404     10506.77204      -734.16604        27.63804                                                                
> 2023 07 14 05 57 09.9995868  0 18                      
G16  21839868.27422    -16906.27322      1661.58222        16.79622                                                                
G18  21159802.87305    -13351.31505       741.29105        34.62505  21159621.79905     -9989.78605       554.29705        29.59205
G26  20274477.97106      6219.33406      -344.82606        41.01406  20274304.99106      5512.63006      -257.73306        40.26506
G29  22074730.48205     68025.10405     -3622.80005        34.63805                                                                
G31  21745898.32807     58737.62207     -3137.83807        45.71907                                                                
R22  20371771.41614     70191.71614     -3778.33414        26.11914
R13  19175778.18523     20961.16323     -1115.74023        22.88223
R23  19485031.19426    -10917.30626       574.32426        36.46526
C11  22367151.94305     50104.42605     -2818.63405        34.75605                                                                
C23  22555841.31606   1408421.14506     -2690.74206        40.25806  22555664.13904     40296.23404     -2027.94204        25.88604
C28  23746429.58924    -29196.63724      1759.48824        24.17324  23746235.62304    -21155.47204      1325.29504        28.98704
C34  24014118.47225     54254.97825     -3718.86825        34.00725  24014108.27913     44533.01013     -2802.86613        23.30213
C37  23037474.68825     -5810.55925       515.87325        30.96025  23037450.10523    -10683.19623       389.49223        23.15023
C43  21601799.18625     24679.96425     -1327.24925        31.83625  21601638.19704     18888.79904     -1000.41604        29.39104
E02  23508816.78505     34901.97805     -1982.92705        30.16805  23508659.09404     27901.79204     -1480.68104        29.33704
E30  24438321.20223    -11161.70323       712.31823        22.57123                                                                
E34  25485122.71705    -26394.20205      1814.22905        33.99005  25484948.53705    -19722.10905      1355.43705        30.21905
E36  23716672.78904     11240.51004      -734.42904        27.19204                                                                
> 2023 07 14 05 57 10.9995861  0 19                      
G05  23703657.30023     10520.36023      -781.83523        17.68223                                                                
G16  21839344.53623    -18563.15923      1662.07023        18.46523                                                                
G18  21159452.71605    -14092.25105       740.02905        34.98805  21159273.74005    -10543.13605       552.61805        30.52205
G26  20274336.76906      6564.54806      -345.92506        39.23606  20274161.39006      5770.33506      -258.16106        39.07706
G29  22075210.75005     71648.16005     -3623.71805        35.35005                                                                
G31  21746281.16307     61875.75707     -3138.85707        44.14807                                                                
R22  20372256.18124     73972.47524     -3773.80924        24.17124
R13  19175795.27314     22076.13914     -1115.07614        24.66514
R23  19484721.20815    -11492.48915       575.41315        32.65215
C11  22367486.21205     52923.29805     -2819.46905        33.21705                                                                
C23  22556152.80006   1411111.95806     -2691.03406        40.82706  22555972.02504     42324.23504     -2028.17404        28.28804
C28  23745881.56814    -30954.68414      1758.69214        27.16514  23745688.50204    -22480.64004      1325.19304        27.21304
C34  24014633.51525     57973.97225     -3719.26225        34.89425  24014613.42923     47335.34723     -2802.10823        22.58423
C37  23037173.39725     -6325.89025       514.26825        29.84425  23037141.61923    -11071.21923       388.89123        21.57923
C43  21601843.55525     26007.27725     -1327.36825        29.69425  21601683.16604     19889.13704     -1000.36304        28.54804
E02  23508981.07105     36885.13805     -1984.28305        29.75405  23508825.17905     29382.76105     -1481.18405        31.70905
E30  24437976.14124    -11895.44224       711.82224        26.06824                                                                
E34  25484569.30005    -28208.65405      1813.72505        32.00105  25484393.32204    -21077.10004      1354.54704        28.69404
E36  23716597.54104     11975.30904      -735.21704        26.89504                                                                
> 2023 07 14 05 57 11.9995855  0 19                      
G05  23703634.81522     11291.41622      -781.46222        17.29922                                                                
G16  21838851.37823    -20224.28723      1661.87323        17.68123                                                                
G18  21159132.53705    -14832.72905       740.16505        34.98605  21158951.76305    -11096.06705       552.61205        32.56905
G26  20274224.94605      6910.19805      -344.97805        35.47605  20274046.86906      6028.38206      -258.10506        38.71906
G29  22075718.29805     75271.38005     -3623.02505        33.84605                                                                
G31  21746706.26906     65014.38406     -3139.05906        39.87106                                                                
R22  20372804.20124     77755.33924     -3776.56824        25.08224
R13  19175820.15614     23191.31514     -1115.44914        27.01914
R23  19484422.91525    -12066.36425       573.31925        31.80825
C11  22367843.56405     55742.39705     -2818.86905        34.05205                                                                
C23  22556487.66906   1413803.24306     -2691.33706        40.33306  22556308.99205     44352.40405     -2027.98705        31.12605
C28  23745366.82524    -32712.93224      1759.49324        26.89124  23745169.86104    -23805.40604      1325.03104        27.02704
C34  24015168.34526     61692.93026     -3718.87626        35.94126  24015148.25924     50138.25024     -2802.35424        23.75024
C37  23036894.59025     -6840.78125       514.48525        31.30125                                                                
C43  21601947.58325     27335.08325     -1328.14625        31.82525  21601757.21504     20890.11504     -1000.82604        26.00804
E02  23509190.92605     38868.59405     -1983.40405        30.67705  23509014.64805     30864.02605     -1481.22405        32.12905
E30  24437661.95924    -12606.59224       711.66224        23.74124                                                                
E34  25484044.96315    -30022.89115      1814.21615        29.79515  25483868.38504    -22431.94004      1355.02604        29.39504
E36  23716562.46504     12710.46104      -735.02804        27.27304                                                                
> 2023 07 14 05 57 12.9995848  0 18                      
G16  21838319.24623    -21886.50823      1662.79623        17.73523                                                                
G18  21158779.98105    -15572.42305       739.60805        35.19005  21158600.40605    -11648.46705       552.61805        32.97305
G26  20274081.34605      7256.56805      -345.54005        35.20505  20273904.16806      6286.98106      -258.38906        37.48706
G29  22076195.86805     78895.08505     -3622.58105        31.74305                                                                
G31  21747089.40306     68153.65806     -3140.62406        36.37506                                                                
R22  20373357.61824     81530.28924     -3781.35624        28.49524
R13  19175839.64224     24307.51024     -1116.18324        28.54124
R23  19484102.13725    -12638.78825       572.23225        34.31025
C11  22368174.23505     58562.09305     -2818.95305        33.92605                                                                
C23  22556795.25606   1416495.14006     -2691.93406        41.31606  22556615.68005     46380.97905     -2028.60205        32.94405
C28  23744811.30924    -34470.43524      1755.34324        25.65724  23744622.74004    -25130.00304      1324.87304        25.14204
C34  24015671.09726     65412.38926     -3718.80326        36.03626  24015651.91024     52941.22824     -2802.61924        23.72924
C37  23036587.60225     -7355.08225       514.19925        31.12325                                                                
C43  21601993.75125     28663.59525     -1328.91825        34.18525  21601803.98204     21891.32504     -1001.32704        27.45104
E02  23509353.41305     40852.63305     -1984.31905        30.82705  23509178.93405     32345.63605     -1481.54205        31.75905
E30  24437317.19703    -13318.00103       711.16303        22.81303                                                                
E34  25483494.54414    -31836.73314      1814.45214        27.93414  25483314.06904    -23786.45104      1354.84704        28.43904
E36  23716493.21304     13446.32004      -735.21104        25.84204                                                                
> 2023 07 14 05 57 13.9995842  0 19                      
G05  23703591.04522     12859.30322      -783.41322        16.59722                                                                
G16  21837817.99322    -23566.09222      1658.53622        17.18722                                                                
G18  21158455.00605    -16311.48605       738.64505        35.31705  21158281.72605    -12200.28805       551.05205        32.55405
G26  20273968.32405      7603.54305      -347.91805        34.85605  20273789.04806      6546.01406      -259.45606        37.20806
G29  22076699.21905     82519.16105     -3624.66505        31.25705                                                                
G31  21747501.01805     71293.63005     -3140.02705        34.14605                                                                
R22  20373903.54025     85312.71025     -3783.01725        30.45625
R13  19175878.61524     25424.63024     -1117.66624        29.31424
R23  19483808.94025    -13210.45725       571.21425        34.78525
C11  22368537.58405     61382.20405     -2820.68805        33.44305                                                                
C23  22557132.52206   1419187.57606     -2692.95206        41.05306  22556952.94605     48410.07305     -2029.56905        33.58205
C28  23744304.36024    -36227.70124      1757.38124        25.35624  23744104.99804    -26454.22204      1323.81404        24.90704
C34  24016208.32526     69132.09226     -3720.18426        37.77626  24016185.24123     55744.33323     -2803.47623        23.04123
C37  23036309.69525     -7868.85625       513.27325        30.91825                                                                
C43  21602068.09925     29992.61325     -1329.27825        34.52425  21601878.33104     22892.76604     -1001.21004        27.10404
E02  23509548.27805     42837.01505     -1984.57905        30.60705  23509380.09505     33827.47005     -1482.12405        32.58305
E30  24437003.01504    -14028.98604       710.73704        24.40304                                                                
E34  25482966.31004    -33650.16204      1812.86604        28.13004  25482788.83204    -25140.74904      1354.78804        28.65304
E36  23716456.63904     14182.74804      -737.27904        26.78804                                                                
> 2023 07 14 05 57 14.9995836  0 17                      
G18  21158139.32505    -17049.61805       737.79205        35.48305  21157960.94805    -12751.53705       550.99805        32.69005
G26  20273852.00406      7951.00206      -348.25506        35.77106  20273676.02606      6805.61506      -259.99106        38.26406
G29  22077211.26505     86143.76005     -3624.83605        31.43405                                                                
G31  21747919.52906     74434.71806     -3141.22206        37.51906                                                                
R22  20374444.06614     89095.86714     -3784.10614        28.52714
R13  19175893.00624     26542.68324     -1121.01324        28.09324
R23  19483532.83115    -13781.35915       571.04615        32.76215
C11  22368897.03505     64202.85705     -2820.73805        33.83605                                                                
C23  22557467.39006   1421880.77306     -2693.58606        40.10706  22557289.91305     50439.67205     -2030.03005        32.27205
C28  23743780.92324    -37984.39924      1757.44624        25.45424  23743587.25704    -27778.10004      1323.11804        25.83804
C34  24016739.25726     72852.15426     -3720.75626        37.20226  24016719.77124     58547.77524     -2803.68224        23.75724
C37  23036030.58825     -8381.83525       512.41025        30.76725                                                                
C43  21602141.54905     31322.96305     -1329.71605        34.95505  21601951.18024     23894.93424     -1003.21624        23.82124
E02  23509748.24004     44822.14904     -1984.68804        28.74904  23509577.65805     35309.86005     -1482.63205        32.08305
E30  24436688.53303    -14739.55503       710.38803        22.23203                                                                
E34  25482441.97305    -35463.24905      1812.93605        30.14705  25482264.19605    -26494.45205      1353.58505        29.70805
E36  23716411.97004     14919.76704      -737.78104        26.40404                                                                
> 2023 07 14 05 57 15.9995829  0 17                      
G18  21157788.56806    -17786.72006       737.02806        35.70506  21157609.89105    -13301.99705       550.52505        31.79005
G26  20273706.60506      8299.70906      -348.79506        36.64306  20273532.42606      7066.00206      -260.40706        37.87006
G29  22077694.23005     89769.06705     -3625.05005        32.23505                                                                
G31  21748315.55406     77576.56506     -3142.20006        39.54606                                                                
R22  20374889.85724     92879.73824     -3783.51324        25.01824
R13  19175872.62014     27662.31614     -1122.17214        27.08214
R23  19483195.86425    -14350.95525       568.61125        29.56225
C11  22369226.20705     67024.36805     -2821.71005        34.66205                                                                
C23  22557777.07606   1424574.89406     -2694.28206        39.98506  22557597.80005     52469.97605     -2030.51505        31.10005
C28  23743232.00324    -39740.52124      1759.08024        24.49024  23743041.33504    -29101.43804      1323.30304        26.82604
C34  24017401.49906     76573.33506     -3720.31506        36.72906  24017224.32224     61351.72824     -2803.67924        24.28924
C37  23035872.89705     -8893.42105       511.81605        30.01005                                                                
C43  21602190.41505     32653.68705     -1330.81705        35.31105  21601998.84713     24897.86513     -1001.83513        22.63613
E02  23509920.92004     46808.03004     -1985.92504        27.54404  23509747.34105     36792.75805     -1482.81505        31.74405
E30  24436344.67123    -15449.10023       710.76623        21.30623                                                                
E34  25481881.96005    -37275.44305      1811.99405        30.64905  25481709.28005    -27847.80205      1353.79705        29.81205
E36  23716346.01504     15657.83904      -738.58904        27.88504                                                                
> 2023 07 14 05 57 16.9995823  0 18                      
G18  21157471.38706    -18523.80206       736.90706        35.71506  21157289.11405    -13852.38905       550.09605        31.81005
G26  20273592.38406      8648.32206      -348.75106        36.66106  20273419.10406      7326.33006      -260.45906        38.25106
G29  22078204.47705     93394.01005     -3624.80805        32.74105                                                                
G31  21748727.16906     80718.36406     -3142.26906        39.96906                                                                
R22  20375414.79423     96664.52723     -3782.59223        22.97323
R13  19175919.38714     28781.77614     -1120.02614        26.13614
R23  19482942.24014    -14920.08114       569.03214        27.20314
C11  22369589.25605     69845.58005     -2821.28805        34.97205                                                                
C23  22558113.74306   1427268.90206     -2694.22406        39.60206  22557935.66605     54500.16105     -2029.92605        30.11905
C25  25445624.46123     29596.66123     -4421.64123        20.72423                                                                
C28  23742717.85823    -41496.61923      1753.58823        22.84223  23742523.59304    -30425.05304      1323.38804        27.37204
C34  24017932.73106     80293.76706     -3720.38506        36.28406  24017758.55224     64155.44224     -2803.19624        24.91224
C37  23035595.88905     -9405.69805       512.10105        30.33205                                                                
C43  21602265.36305     33984.24705     -1330.62205        35.34905  21602074.69523     25900.38123     -1000.54223        23.30823
E02  23510123.28004     48793.50304     -1985.07304        26.94804  23509946.10305     38275.49405     -1482.73505        31.88405
E30  24436029.58923    -16158.82223       710.73023        19.20223                                                                
E34  25481354.32505    -39088.09605      1812.84805        31.18705  25481184.04305    -29201.25905      1353.07505        29.70405
E36  23716307.94204     16395.75404      -738.03904        27.62304                                                                
> 2023 07 14 05 57 17.9995816  0 17                      
G18  21157119.73106    -19260.31306       736.14606        35.85406  21156938.05705    -14402.38905       549.79705        31.63805
G26  20273448.18406      8997.49006      -349.55906        36.89606  20273274.90406      7587.04806      -260.83006        38.01306
G29  22078680.54805     97019.32505     -3625.24205        32.21605                                                                
G31  21749120.19706     83860.65206     -3142.37306        39.10706                                                                
R22  20375909.45123    100448.94123     -3783.07123        21.08323
R13  19175908.89524     29901.57624     -1116.51624        26.14024
R23  19482604.37424    -15488.71224       568.76124        28.41424
C11  22369920.22605     72667.17505     -2821.71105        34.75805                                                                
C23  22558421.33006   1429963.31106     -2694.62906        40.10706  22558243.55305     56530.72805     -2030.49405        30.62705
C25  25446258.52223     34021.33023     -4422.58423        20.20423                                                                
C28  23742169.23823    -43252.80823      1754.33223        23.30623  23741977.67104    -31748.48204      1323.18204        26.56204
C34  24018439.98006     84014.34206     -3720.45206        36.23306  24018263.70224     66959.26824     -2803.26724        25.13724
C37  23035286.50304     -9917.50304       511.56204        29.40504                                                                
C43  21602313.92906     35315.22006     -1331.37206        35.90206  21602119.96424     26903.41824     -1002.93924        23.52824
E02  23510291.76404     50779.54204     -1986.28804        26.00204  23510114.28705     39758.47905     -1483.05805        30.88605
E34  25480801.20805    -40900.34305      1811.57605        30.98605  25480629.72705    -30554.71105      1353.71905        29.57605
E36  23716239.88904     17134.18304      -738.94104        27.16004                                                                
> 2023 07 14 05 57 18.9995810  0 17                      
G18  21156797.75406    -19996.15506       735.63006        35.80606  21156616.97905    -14951.80705       548.99605        31.21305
G26  20273336.96106      9347.25706      -349.89506        37.30006  20273161.88206      7848.28406      -261.59606        38.16406
G29  22079189.59505    100645.02505     -3625.74105        32.26105                                                                
G31  21749538.70806     87003.64006     -3143.33606        39.11006                                                                
R22  20376436.48724    104234.46124     -3784.39624        23.59124
R13  19175937.97414     31023.13414     -1121.52614        26.91514
R23  19482325.86625    -16056.41725       567.65625        29.96625
C11  22370281.77605     75489.23205     -2822.12305        34.96905                                                                
C23  22558759.79606   1432658.30006     -2695.13606        40.44406  22558580.81905     58561.67605     -2031.12105        31.19405
C25  25446926.45923     38440.56823     -4424.19723        22.10323                                                                
C28  23741650.89724    -45008.66224      1754.62124        24.46724  23741460.82904    -33071.58504      1322.86604        26.50104
C34  24018970.01306     87735.24306     -3720.94906        35.60506  24018798.53224     69763.31024     -2803.24624        23.67524
C37  23035007.99624    -10429.25424       510.99024        27.82724                                                                
C43  21602388.27806     36646.70806     -1331.73306        36.44106  21602194.91223     27906.94323     -1004.04823        22.97723
E02  23510486.62904     52765.92304     -1987.81504        24.00104  23510311.55005     41241.72605     -1483.25505        30.06405
E34  25480275.07305    -42712.37405      1811.62805        31.00205  25480103.89104    -31907.84504      1353.09504        29.11204
E36  23716206.01204     17873.25104      -739.71504        26.71504                                                                
> 2023 07 14 05 57 19.9995804  0 17                      
G18  21156479.37406    -20731.04506       734.85406        35.65006  21156296.80005    -15500.60305       548.33505        31.06005
G26  20273225.43806      9697.87406      -350.68906        37.38206  20273049.16006      8110.10206      -262.22806        38.03306
G29  22079701.94005    104271.25905     -3626.36905        32.23005                                                                
G31  21749962.91406     90147.45806     -3144.01306        38.86806                                                                
R22  20376959.02524    108023.07824     -3785.85424        25.05824
R13  19175979.04624     32145.57024     -1122.38124        28.01724
R23  19482236.52825    -16622.93025       566.22125        30.93725
C11  22370645.42405     78311.89305     -2822.44505        35.02305                                                                
C23  22559100.36006   1435354.10506     -2695.58306        40.85906  22558918.38605     60593.27305     -2031.65005        31.34005
C25  25447596.19623     42863.53623     -4425.22723        22.74323                                                                
C28  23741133.45524    -46763.77024      1755.52124        24.48524  23740943.38704    -34394.24804      1322.62204        27.02804
C34  24019509.34006     91456.67006     -3721.78006        35.65306  24019332.46223     72567.85523     -2804.71423        23.17023
C37  23034729.18924    -10939.74224       510.02924        26.52824                                                                
C43  21602463.82506     37979.01906     -1332.17206        36.65406  21602271.35923     28910.98923     -1004.54823        21.94623
E02  23510688.68923     54752.43823     -1986.63523        21.36123  23510508.21404     42725.57404     -1483.83304        29.07004
E34  25479749.53605    -44523.80605      1811.39805        30.54205  25479579.55404    -33260.51404      1352.88804        28.71304
E36  23716170.33704     18613.07004      -740.26104        26.97004                                                                
> 2023 07 14 05 57 20.9995796  0 18                      
G18  21156128.01705    -21465.67305       733.93705        35.08405  21155946.34305    -16049.20605       548.16105        29.95205
G26  20273082.43706     10048.75106      -350.96706        36.96006  20272907.05806      8371.99506      -261.84306        37.63706
G29  22080182.80805    107897.37905     -3625.89705        31.67805                                                                
G31  21750352.64406     93291.47906     -3144.01506        36.95206                                                                
R22  20377460.57824    111811.64624     -3786.94624        24.41024
R13  19175976.94724     33268.50924     -1123.78024        28.92724
R23  19481923.54525    -17189.16625       566.01225        34.69425
C11  22370976.39505     81134.59105     -2822.86705        34.53505                                                                
C23  22559406.44806   1438050.03606     -2696.20006        40.95406  22559226.27305     62624.89605     -2031.78205        32.60505
C25  25448236.55223     47289.15623     -4424.54723        22.30623                                                                
C28  23740584.83524    -48519.15924      1756.18024        25.32824  23740397.76504    -35717.14904      1323.74704        26.59104
C34  24020015.09005     95177.82705     -3721.61405        34.41205  24019837.31323     75371.80123     -2804.29023        21.45223
C37  23034416.20524    -11450.09524       513.08024        25.57524                                                                
C43  21602509.99406     39311.40006     -1332.74206        36.21206  21602317.82724     29915.09524     -1003.79524        25.41624
E02  23510855.37423     56739.50123     -1987.41223        23.33023  23510675.79804     44209.32204     -1484.25504        28.71504
E30  24434703.90623    -18938.94223       710.25223        18.66323                                                                
E34  25479196.71905    -46335.28905      1811.14505        29.75405  25479025.23804    -34613.32404      1352.70404        28.21304
E36  23716101.68404     19352.96104      -739.73804        26.70704                                                                
> 2023 07 14 05 57 21.9995791  0 19                      
G16  21833769.89613    -36809.55713      1655.47513        23.39413                                                                
G18  21155811.13705    -22200.28305       734.67705        34.99305  21155626.46505    -16597.79305       548.73505        30.52105
G26  20272972.71306     10399.56906      -350.53806        37.07206  20272793.43706      8634.05006      -262.05006        38.21306
G29  22080690.35605    111523.37305     -3625.35705        32.26805                                                                
G31  21750772.05405     96435.50405     -3144.02205        34.69705                                                                
R22  20377995.40723    115598.54523     -3787.84023        23.10923
R13  19176013.82225     34391.70525     -1123.06225        29.99125
R23  19481644.43826    -17755.04226       565.80626        36.06826
C11  22371339.14405     83957.21805     -2822.47405        35.15805                                                                
C23  22559746.41306   1440745.90906     -2695.55006        41.42806  22559564.13905     64656.53805     -2031.37005        32.36105
C25  25448906.88823     51714.63323     -4424.09023        22.24723                                                                
C28  23740065.59524    -50274.54524      1755.08824        25.71124  23739879.12404    -37040.01504      1323.74704        26.66604
C34  24020547.82125     98898.33725     -3720.66025        31.34425                                                                
C37  23034141.29624    -11960.56424       514.92124        23.61824                                                                
C43  21602587.34006     40643.80506     -1332.35706        35.63706  21602393.97424     30919.12524     -1004.38624        24.82624
E02  23511049.63923     58726.39723     -1986.98723        20.42423  23510871.26304     45692.82504     -1483.56004        27.25304
E30  24434385.82723    -19649.57023       710.24623        18.56223                                                                
E34  25478672.68204    -48147.13404      1811.87304        29.46404  25478501.50004    -35966.23404      1353.13704        28.65904
E36  23716066.30904     20093.00304      -740.12404        27.35904                                                                
> 2023 07 14 05 57 22.9995785  0 19                      
G16  21833289.32824    -38462.72124      1653.95424        24.17624                                                                
G18  21155487.66105    -22934.71405       735.03805        34.80405  21155306.88605    -17146.19805       548.64905        30.71905
G26  20272857.29306     10750.48306      -350.73606        37.31806  20272679.81606      8896.06106      -261.72906        38.24706
G29  22081198.50405    115149.17005     -3625.07005        32.26405                                                                
G31  21751190.86406     99579.62306     -3143.73506        35.56606                                                                
R22  20378520.94424    119383.58524     -3785.86724        26.91524
R13  19176052.19524     35515.29824     -1123.40324        29.49324
R23  19481351.84125    -18320.63925       565.66625        34.96325
C11  22371700.69405     86779.65805     -2822.02805        35.44605                                                                
C23  22560083.97907   1443441.87007     -2695.79607        41.65507  22559902.60405     66688.15005     -2031.05705        31.53305
C25  25449578.12423     56139.56223     -4424.49823        22.07723                                                                
C28  23739533.16324    -52030.09324      1753.59024        24.84224  23739362.88104    -38362.99404      1323.05804        26.52604
C34  24021079.65325    102619.00525     -3719.99625        30.63125                                                                
C37  23033861.58923    -12470.60123       514.49723        22.77623                                                                
C43  21602664.68606     41976.18106     -1332.06706        35.52606  21602470.42124     31923.21224     -1004.42324        23.82724
E02  23511244.20423     60712.69923     -1986.58923        18.96623  23511066.72704     47176.32604     -1482.33204        27.35704
E30  24434075.24223    -20360.00423       710.26223        19.02623                                                                
E34  25478149.24404    -49959.14704      1813.14604        29.20604  25477975.66405    -37319.37905      1353.83305        29.60105
E36  23716021.04004     20832.93804      -739.81504        27.47704  23715845.96123     15012.49823      -551.40023        21.39423
> 2023 07 14 05 57 23.9995778  0 19                      
G16  21832764.39224    -40118.07124      1652.76024        24.96424                                                                
G18  21155139.60205    -23668.57405       733.60105        34.46405  21154958.22705    -17694.23205       547.85505        32.02205
G26  20272720.58806     11101.81306      -351.65306        37.82706  20272536.51506      9158.43006      -262.41706        38.53606
G29  22081676.07405    118775.04305     -3626.16205        33.38305                                                                
G31  21751576.09706    102724.28706     -3145.07206        36.52206                                                                
R22  20379042.58224    123170.28824     -3787.32124        29.07324
R13  19176041.70324     36639.61924     -1125.06424        29.35224
R23  19481037.95825    -18885.68225       564.78325        33.78625
C11  22372029.56605     89602.31905     -2822.69705        35.20605                                                                
