     3.03           OBSERVATION DATA    M                   RINEX VERSION / TYPE
GnssLogger          HONOR 12            20221003 102737 UTC PGM / RUN BY / DATE
Google GnssLogger                                           MARKER NAME
Unknown                                                     MARKER NUMBER
Unknown             Unknown                                 OBSERVER / AGENCY
Unknown             GnssLogger          v3.0.5.6            REC # / TYPE / VERS
Unknown             Unknown                                 ANT # / TYPE
        0.0000        0.0000        0.0000                  APPROX POSITION XYZ
        0.0000        0.0000        0.0000                  ANTENNA: DELTA H/E/N
G    8 C1C L1C D1C S1C C5Q L5Q D5Q S5Q                      SYS / # / OBS TYPES
R    4 C1C L1C D1C S1C                                      SYS / # / OBS TYPES
C    8 C2I L2I D2I S2I C7Q L7Q D7Q S7Q                      SYS / # / OBS TYPES
E    8 C1C L1C D1C S1C C5Q L5Q D5Q S5Q                      SYS / # / OBS TYPES
  2022    10    03    10    27   37.0000000     GPS         TIME OF FIRST OBS
 9 R01  1 R06 -4 R07  5 R08  6 R09 -2 R15  0 R21  4 R23  3  GLONASS SLOT / FRQ #
   R24  2                                                   GLONASS SLOT / FRQ #
G L1C                                                       SYS / PHASE SHIFT
G L5Q  0.00000                                              SYS / PHASE SHIFT
R L1C                                                       SYS / PHASE SHIFT
C L2I                                                       SYS / PHASE SHIFT
C L7Q  0.00000                                              SYS / PHASE SHIFT
E L1C  0.00000                                              SYS / PHASE SHIFT
E L5Q  0.00000                                              SYS / PHASE SHIFT
 C1C    0.000 C1P    0.000 C2C    0.000 C2P    0.000        GLONASS COD/PHS/BIS
                                                            END OF HEADER
> 2022 10 03 10 27 37.4119596  0 33                      
G01  23506351.60026        -0.00026     -3659.28226        38.10026  23503973.04624        -0.00024     -2732.63024        26.30024
G03  21428752.09226        -0.00026     -2250.14726        36.20026  21426329.16927        -0.00027     -1680.19627        44.30027
G04  20526766.82324         0.00024       632.20024        26.80024  20524331.60924         0.00024       472.40524        24.50024
G06  21995953.42724         0.00024      2696.80024        23.80024  21993618.64324         0.00024      2013.37024        25.40024
G17  22450383.33126        -0.00026     -2517.27226        41.40026                                                                
G19  21542693.01224        -0.00024     -1109.90024        25.70024                                                                
G21  25581360.90124        -0.00024     -3259.75024        27.10024                                                                
G31  23820858.17124        -0.00024     -1478.85024        25.80024                                                                
R15  23586039.43324        -0.00024     -1559.65024        24.90024
R24  23235318.23223         0.00023      4173.45023        20.60023
R23  19873718.41925         0.00025      1727.74025        33.80025
R07  19431380.04425        -0.00025     -1302.22925        33.10025
R08  20228250.58226         0.00026      2264.86926        39.60026
C41  21792737.31027         0.00027       809.56827        41.90027  21790855.21326         0.00026       610.05326        39.00026
C33  23016735.05425        -0.00025     -2039.17925        31.50025  23014817.58224        -0.00024     -1536.21224        29.00024
C32  25355305.69624         0.00024      2916.65024        27.50024                                                                
C30  24355161.18125         0.00025      2181.49125        31.90025                         0.00023      1641.95023        18.20023
C28  24171231.31324        -0.00024     -3190.85024        27.70024                                                                
C27  22360373.34427        -0.00027      -729.12127        42.20027  22358486.15125        -0.00025      -549.49025        35.20025
C26  26023766.43024        -0.00024      -311.10024        27.20024  26021892.42723        -0.00023      -235.15023        22.30023
C24  25857960.81526         0.00026      1865.74226        36.20026                         0.00023      1405.45023        19.70023
C14  24705849.10523        -0.00023     -2889.45023        21.50023                                                                
C09  38988671.71325        -0.00025      -386.09825        35.30025                                                                
C05  40446276.73424        -0.00024       -31.95024        26.60024                                                                
E04  24384170.29925        -0.00025     -1255.12025        32.40025  24382212.05426        -0.00026      -937.23226        36.90026
E05  27785243.78424         0.00024      3038.85124        28.70024                                                                
E09  24133082.42324         0.00024      1620.69424        26.10024                                                                
E10  26727213.54324        -0.00024     -2947.57724        27.10024  26725237.01224        -0.00024     -2201.13724        29.20024
E11  23887558.39624        -0.00024     -2126.20624        26.20024                                                                
E34  26713487.54623         0.00023      2744.75023        23.10023                         0.00023      2047.50023        17.70023
E36  23641517.22727         0.00027       556.37527        42.90027  23639603.35226         0.00026       415.50626        39.50026
G09                                                                  21794120.85225         0.00025      2125.61125        30.30025
C39                                                                                                                                
> 2022 10 03 10 27 38.4119596  0 32                      
G01  23507067.92826        -0.00026     -3660.40726        37.30026  23504669.28924        -0.00024     -2733.54524        24.50024
G03  21429162.03326        -0.00026     -2251.27026        39.60026  21426757.69727        -0.00027     -1681.26127        43.90027
G04  20526633.84024         0.00024       631.25024        24.80024  20524210.31824         0.00024       471.13824        25.50024
G06  21995452.29824         0.00024      2693.50024        25.60024  21993082.43923         0.00023      2012.55323        23.30023
G09  21795895.74823         0.00023      2846.15023        22.10023  21793579.55225         0.00025      2124.68425        31.00025
G17  22450857.72826        -0.00026     -2518.57526        40.50026                                                                
G19  21542906.88924        -0.00024     -1113.10024        27.40024                                                                
G21  25581976.19924        -0.00024     -3261.55024        27.70024                                                                
G31  23821129.00824        -0.00024     -1477.35024        28.50024                                                                
R06  22626490.83923        -0.00023     -3776.60023        21.90023
R24  23234588.06223         0.00023      4177.70023        22.60023
R23  19873403.46225         0.00025      1726.21725        33.50025
R07  19431602.31525        -0.00025     -1303.90525        32.10025
R08  20227831.59626         0.00026      2263.43626        39.90026
C41  21792579.44427         0.00027       808.25227        43.00027  21790700.34526         0.00026       609.23126        38.00026
C39  40883734.91224        -0.00024     -1308.25024        24.40024                                                                
C33  23017142.29724        -0.00024     -2039.82024        29.30024  23015208.93524        -0.00024     -1537.66224        27.00024
C32  25354715.22924         0.00024      2918.30024        27.70024                                                                
C30  24354745.19425         0.00025      2178.54125        33.20025                                                                
C28  24171827.42524        -0.00024     -3193.45024        28.00024                        -0.00023     -2406.10023        19.30023
C27  22360509.57427        -0.00027      -730.65827        42.50027  22358626.87825        -0.00025      -550.48225        34.00025
C26  26023826.21324        -0.00024      -313.30024        28.30024  26021954.30924        -0.00024      -235.26024        23.60024
C24  25857603.58626         0.00026      1864.53626        36.70026  25855685.21423         0.00023      1405.45023        20.70023
C14  24706342.68824        -0.00024     -2889.30024        24.50024                                                                
C09  38988746.48526        -0.00026      -387.19826        36.80026                                                                
E04  24384391.67025        -0.00025     -1256.11325        34.30025  24382450.21426        -0.00026      -938.20426        36.60026
E05  27784675.20324         0.00024      3037.58224        29.10024                         0.00023      2267.85023        17.90023
E09  24132753.07624         0.00024      1619.42524        26.50024                                                                
E10  26727765.28625        -0.00025     -2949.60225        30.30025  26725799.24724        -0.00024     -2201.95024        26.50024
E11  23887970.73524        -0.00024     -2127.31424        28.00024                                                                
E27                        -0.00023      -253.70023        18.90023                                                                
E36  23641412.42427         0.00027       555.06027        44.20027  23639497.94926         0.00026       414.61826        38.00026
> 2022 10 03 10 27 39.4119596  0 31                      
G01  23507822.78625        -0.00025     -3659.79525        30.30025  23505356.99323        -0.00023     -2734.65023        21.80023
G03  21429594.91326        -0.00026     -2250.76126        41.40026  21427185.48127        -0.00027     -1680.70127        41.60027
G04  20526520.49924         0.00024       632.25024        26.30024  20524091.58023         0.00023       470.10023        20.70023
G06  21994956.12224         0.00024      2694.65024        28.50024  21992567.97523         0.00023      2013.90023        21.20023
G09  21795381.58424         0.00024      2846.00024        28.30024  21793038.40724         0.00024      2124.91824        29.40024
G17  22451326.28326        -0.00026     -2518.34826        36.70026                                                                
G19  21543113.12625        -0.00025     -1110.63025        30.10025                                                                
G31  23821403.89824        -0.00024     -1477.39324        28.90024                                                                
R15  23586541.99023        -0.00023     -1568.65023        20.90023
R24  23233730.03624         0.00024      4178.10024        25.70024
R23  19873083.26425         0.00025      1726.08225        33.00025
R07  19431841.22925        -0.00025     -1303.76525        33.10025
R08  20227405.87126         0.00026      2263.68626        40.30026
C41  21792424.43227         0.00027       808.66527        43.00027  21790545.03325         0.00025       609.44125        34.90025
C33  23017496.93225        -0.00025     -2039.47425        35.00025  23015599.54524        -0.00024     -1536.77124        25.90024
C32  25354167.78824         0.00024      2917.66824        29.30024                                                                
C30  24354335.35825         0.00025      2178.80825        32.30025                         0.00023      1642.65023        19.60023
C28  24172455.17124        -0.00024     -3193.41524        29.30024                                                                
C27  22360652.55527        -0.00027      -730.42527        44.80027  22358768.95925        -0.00025      -550.42025        31.70025
C26  26023882.55424        -0.00024      -314.45024        26.30024                                                                
C24  25857251.61026         0.00026      1864.90926        37.40026  25855319.14823         0.00023      1406.40023        22.80023
C14  24706901.48124        -0.00024     -2888.30024        26.40024                                                                
C09  38988824.41226        -0.00026      -386.48126        37.40026                                                                
E04  24384604.20326        -0.00026     -1255.85126        37.70026  24382692.12725        -0.00025      -937.71625        30.80025
E05  27784086.09125         0.00025      3038.42825        29.50025                                                                
E09  24132449.96624         0.00024      1619.89824        24.30024                                                                
E10  26728321.38125        -0.00025     -2947.96225        31.10025  26726365.53524        -0.00024     -2201.47924        24.40024
E11  23888400.61724        -0.00024     -2128.42624        28.00024                                                                
E27  28537391.08823        -0.00023      -255.00023        23.10023                                                                
E34                         0.00023      2741.85023        19.40023                                                                
E36  23641305.37827         0.00027       555.54527        43.90027  23639393.30225         0.00025       414.85025        34.20025
> 2022 10 03 10 27 40.4119596  0 33                      
G01  23508520.14525        -0.00025     -3661.59625        30.60025                                                                
G03  21430030.25426        -0.00026     -2252.87526        39.20026  21427613.92627        -0.00027     -1682.06627        41.80027
G04  20526402.42224         0.00024       626.55024        24.00024  20523974.70324         0.00024       470.00024        23.60024
G06  21994437.52324         0.00024      2693.00024        27.80024  21992058.66923         0.00023      2013.00023        21.00023
G09  21794837.20324         0.00024      2841.55024        26.40024  21792495.22424         0.00024      2123.63724        29.00024
G17  22451813.18826        -0.00026     -2520.27926        36.60026                                                                
G19  21543345.50725        -0.00025     -1113.24325        29.70025                                                                
G31  23821701.03424        -0.00024     -1479.90024        28.00024                                                                
R06  22627938.55923        -0.00023     -3773.20023        20.10023
R24  23232942.22424         0.00024      4179.45024        23.70024
R23  19872758.03125         0.00025      1723.46925        33.30025
R07  19432095.49525        -0.00025     -1305.79925        33.20025
R08  20226978.10926         0.00026      2261.44626        40.50026
C41  21792269.78027         0.00027       806.73027        43.80027  21790389.18225         0.00025       608.21425        34.60025
C33  23017898.99526        -0.00026     -2041.15926        35.70026  23015986.01923        -0.00023     -1537.66423        23.10023
C32  25353598.22424         0.00024      2914.05024        27.90024                                                                
C30  24353912.09225         0.00025      2177.05525        32.50025  24352006.61123         0.00023      1639.55023        21.90023
C28  24173052.99825        -0.00025     -3195.42225        29.60025                        -0.00023     -2408.35023        19.70023
C27  22360793.20027        -0.00027      -732.62227        44.60027  22358910.50325        -0.00025      -551.84425        32.10025
C26  26023938.65724        -0.00024      -312.80024        27.50024                        -0.00023      -235.70023        19.50023
C24  25856890.70226         0.00026      1862.82526        37.40026                                                                
C14  24707481.92124        -0.00024     -2892.20024        27.50024                                                                
C09  38988903.89826        -0.00026      -388.34826        37.60026                                                                
C05  40446261.29124        -0.00024       -33.40024        26.90024                                                                
E04  24384839.88126        -0.00026     -1257.64726        37.80026  24382929.60424        -0.00024      -939.04724        29.10024
E05  27783500.93724         0.00024      3037.02424        29.40024                                                                
E09  24132124.13323         0.00023      1616.45023        22.70023                                                                
E10  26728882.03525        -0.00025     -2949.54925        32.40025  26726931.28524        -0.00024     -2202.62924        24.60024
E11  23888796.98524        -0.00024     -2128.10024        25.60024                                                                
E27  28537448.09123        -0.00023      -256.55023        22.80023                                                                
E36  23641200.19227         0.00027       553.58327        43.10027  23639286.91725         0.00025       413.34225        33.80025
E34                                                                                         0.00023      2047.15023        18.60023
C39                                                                                                                                
> 2022 10 03 10 27 41.4119596  0 33                      
G01  23509194.73525        -0.00025     -3664.37425        30.50025  23506754.12523        -0.00023     -2736.00023        20.60023
G03  21430467.10826        -0.00026     -2255.48426        37.70026  21428042.98727        -0.00027     -1684.25527        42.00027
G06  21993934.82824         0.00024      2690.17324        28.70024  21991549.67923         0.00023      2010.30023        20.90023
G09  21794279.64624         0.00024      2839.25024        28.10024  21791957.15425         0.00025      2121.33625        29.70025
G17  22452295.61126        -0.00026     -2523.20526        37.70026                                                                
G19  21543542.52825        -0.00025     -1116.23125        30.20025                                                                
G21  25583837.09024        -0.00024     -3263.25024        25.60024                                                                
G31  23821984.09624        -0.00024     -1481.90024        28.50024                                                                
R15  23587084.41323        -0.00023     -1570.20023        21.10023
R23  19872443.90525         0.00025      1720.27425        32.80025
R07  19432354.27325        -0.00025     -1308.84325        30.80025
R08  20226556.65826         0.00026      2258.45626        40.40026
C41  21792113.04627         0.00027       803.86327        43.70027  21790235.74625         0.00025       605.79625        34.50025
C39  40884480.57524        -0.00024     -1315.00024        25.50024                                                                
C33  23018298.97525        -0.00025     -2043.86725        33.20025  23016376.70624        -0.00024     -1540.11724        24.30024
C32  25353041.56724         0.00024      2913.65024        28.20024                                                                
C30  24353493.93925         0.00025      2173.95125        33.20025  24351585.46023         0.00023      1636.35023        22.30023
C28  24173668.53024        -0.00024     -3198.16424        29.30024  24171802.02223        -0.00023     -2408.30023        21.20023
C27  22360933.86027        -0.00027      -735.60427        44.30027  22359051.16325        -0.00025      -554.32525        31.00025
C26  26024001.37124        -0.00024      -317.95024        28.00024  26022134.26323        -0.00023      -237.75023        21.20023
C24  25856540.00226         0.00026      1860.08026        37.20026                         0.00023      1403.85023        19.70023
C14  24708044.08924        -0.00024     -2893.45024        26.40024                                                                
C09  38988976.80526        -0.00026      -390.87126        37.60026                                                                
E04  24385072.27826        -0.00026     -1260.64126        35.90026  24383165.59825        -0.00025      -941.50025        30.30025
E05  27782931.08925         0.00025      3034.19325        30.30025                                                                
E09  24131815.10424         0.00024      1615.04224        25.10024                                                                
E10  26729449.59925        -0.00025     -2952.34825        31.30025  26727487.75724        -0.00024     -2204.75424        24.80024
E11  23889190.96924        -0.00024     -2131.60224        27.50024                                                                
E19                        -0.00022     -2952.55022        16.60022                                                                
E27  28537491.31824        -0.00024      -260.60024        24.10024                                                                
E34                         0.00023      2739.05023        19.80023                                                                
E36  23641095.32227         0.00027       550.60527        43.00027  23639180.84825         0.00025       411.15025        33.90025
G04                                                                  20523851.84523         0.00023       467.15023        22.70023
> 2022 10 03 10 27 42.4119596  0 33                      
G01  23509902.57924        -0.00024     -3664.16524        29.30024                                                                
G03  21430904.23926        -0.00026     -2255.68826        37.10026  21428472.32327        -0.00027     -1684.43727        42.30027
G04  20526188.76123         0.00023       630.00023        20.80023  20523734.06023         0.00023       466.25023        23.40023
G06  21993441.40324         0.00024      2690.90024        28.40024  21991032.87023         0.00023      2009.85023        20.90023
G09  21793758.34124         0.00024      2842.25024        27.60024  21791414.56325         0.00025      2121.07525        29.70025
G17  22452778.31126        -0.00026     -2523.36426        37.70026                                                                
G19  21543750.91725        -0.00025     -1116.68825        31.80025                                                                
G21  25584452.89824        -0.00024     -3265.05024        23.80024                                                                
G31  23822266.23424        -0.00024     -1484.00024        28.50024                                                                
R06  22629402.83623        -0.00023     -3779.95023        21.40023
R15  23587461.88623        -0.00023     -1570.30023        23.40023
R24  23231307.84623         0.00023      4173.90023        20.90023
R23  19872120.76325         0.00025      1719.66025        33.40025
R07  19432606.73225        -0.00025     -1309.23125        31.90025
R08  20226135.78326         0.00026      2258.08126        40.60026
C41  21791960.48527         0.00027       803.65927        44.00027  21790081.08625         0.00025       605.67325        34.80025
C33  23018687.84025        -0.00025     -2043.81825        32.50025  23016767.96924        -0.00024     -1539.41324        24.00024
C32  25352486.68424         0.00024      2912.45024        27.80024                                                                
C30  24353074.26325         0.00025      2173.69425        33.50025  24351170.58123         0.00023      1638.55023        21.60023
C28  24174284.03724        -0.00024     -3198.17824        29.40024                                                                
C27  22361075.39527        -0.00027      -736.03827        44.40027  22359189.40125        -0.00025      -554.62425        32.10025
C26  26024072.15524        -0.00024      -316.65024        28.80024  26022193.35623        -0.00023      -240.25023        21.80023
C24  25856178.78626         0.00026      1859.87226        38.20026  25854251.12023         0.00023      1405.00023        20.00023
C14  24708603.83524        -0.00024     -2892.50024        27.30024                                                                
C09  38989050.28826        -0.00026      -390.74526        37.90026                                                                
E04  24385307.34926        -0.00026     -1260.87226        35.50026  24383406.96425        -0.00025      -941.68825        31.10025
E05  27782351.02425         0.00025      3034.01725        30.20025                         0.00023      2267.15023        18.10023
E09  24131513.24724         0.00024      1614.71424        24.60024                                                                
E10  26730019.53825        -0.00025     -2952.46525        30.80025  26728046.90424        -0.00024     -2204.69824        25.30024
E11  23889610.71224        -0.00024     -2132.26224        27.30024                                                                
E27  28537548.01223        -0.00023      -259.05023        23.30023                                                                
E34  26710866.09823         0.00023      2739.05023        20.80023                                                                
E36  23640991.02827         0.00027       550.28327        43.70027  23639077.15325         0.00025       410.95225        34.70025
> 2022 10 03 10 27 43.4119596  0 32                      
G01  23510584.47624        -0.00024     -3661.90024        26.80024  23508148.36223        -0.00023     -2736.45023        21.50023
G03  21431332.81226        -0.00026     -2254.59426        37.10026  21428901.49527        -0.00027     -1683.61127        41.90027
G04  20526081.60423         0.00023       624.40023        21.40023  20523611.91423         0.00023       468.45023        22.70023
G06  21992910.64024         0.00024      2691.76924        29.00024  21990521.89323         0.00023      2009.15023        20.80023
G09  21793235.97224         0.00024      2841.37524        29.10024  21790876.00524         0.00024      2121.83124        29.30024
G17  22453253.05126        -0.00026     -2522.46826        37.70026                                                                
G19  21543956.14425        -0.00025     -1116.04825        32.90025                                                                
G21  25585126.40023        -0.00023     -3257.05023        22.80023                                                                
G31  23822550.90625        -0.00025     -1482.35325        29.70025                                                                
R15  23587759.44924        -0.00024     -1570.70024        24.70024
R23  19871811.24625         0.00025      1720.34425        34.80025
R07  19432860.82525        -0.00025     -1308.45825        32.00025
R08  20225712.04626         0.00026      2258.92526        40.20026
C41  21791804.76227         0.00027       804.60827        43.60027  21789927.76225         0.00025       606.43225        33.80025
C33  23019078.03925        -0.00025     -2042.95325        32.30025  23017159.96723        -0.00023     -1540.44623        23.30023
C32  25351918.74724         0.00024      2911.20024        28.30024                                                                
C30  24352655.62225         0.00025      2174.69925        33.30025  24350749.24223         0.00023      1637.15023        21.60023
C28  24174893.98424        -0.00024     -3196.31824        29.40024                        -0.00023     -2410.10023        18.90023
C27  22361214.96827        -0.00027      -735.23727        44.40027  22359333.77025        -0.00025      -554.15325        32.80025
C26  26024132.88324        -0.00024      -316.30024        27.40024                                                                
C24  25855820.40326         0.00026      1860.80726        37.90026  25853891.23823         0.00023      1402.10023        21.50023
C14  24709168.51324        -0.00024     -2892.05024        27.70024                                                                
C09  38989123.00726        -0.00026      -389.53726        37.70026                                                                
C05  40446313.41524        -0.00024       -32.45024        27.40024                                                                
E04  24385541.65625        -0.00025     -1259.74825        34.60025  24383645.76825        -0.00025      -940.73425        30.40025
E05  27781776.49124         0.00024      3035.47724        29.30024                                                                
E09  24131198.93424         0.00024      1615.88324        24.90024                                                                
E10  26730577.32125        -0.00025     -2951.05325        31.10025  26728611.88224        -0.00024     -2203.74224        25.40024
E11  23890007.20724        -0.00024     -2130.52024        27.20024                                                                
E19                        -0.00023     -2955.55023        18.50023                                                                
E27  28537586.25523        -0.00023      -259.25623        23.40023                                                                
E36  23640885.67027         0.00027       551.34927        43.40027  23638972.09525         0.00025       411.65925        34.60025
> 2022 10 03 10 27 44.4119596  0 32                      
G01  23511303.93524        -0.00024     -3664.40024        25.50024                                                                
G03  21431754.87726        -0.00026     -2254.97626        38.10026  21429330.75527        -0.00027     -1683.88027        41.70027
G04  20525918.47424         0.00024       621.55024        25.50024  20523495.25223         0.00023       467.95023        23.00023
G06  21992395.55324         0.00024      2691.30424        29.10024  21990008.30623         0.00023      2009.30023        22.40023
G09  21792682.21224         0.00024      2840.20024        26.30024  21790333.33825         0.00025      2121.56625        30.30025
G17  22453744.36826        -0.00026     -2522.91926        38.10026                                                                
G19  21544177.94825        -0.00025     -1116.97325        30.40025                                                                
G31  23822824.57324        -0.00024     -1483.04424        28.90024                                                                
R06  22630651.29823        -0.00023     -3782.15023        20.60023
R15  23588070.89024        -0.00024     -1574.25024        24.90024
R23  19871490.72526         0.00026      1719.49526        36.00026
R07  19433096.11925        -0.00025     -1309.10925        33.40025
R08  20225288.69626         0.00026      2258.31726        40.50026
C41  21791648.82727         0.00027       804.19127        44.10027  21789770.92725         0.00025       606.10225        34.50025
C39  40885237.71124        -0.00024     -1311.60024        25.40024                                                                
C33  23019479.41825        -0.00025     -2043.15325        32.30025  23017609.91225        -0.00025     -1537.34625        33.70025
C32  25351360.49024         0.00024      2917.85024        28.70024                                                                
C30  24352243.06525         0.00025      2174.32125        33.70025  24350333.68623         0.00023      1638.70023        22.10023
C28  24175518.10924        -0.00024     -3197.65024        28.90024                                                                
C27  22361357.62627        -0.00027      -735.83127        44.10027  22359474.33025        -0.00025      -554.50425        32.00025
C26  26024197.89424        -0.00024      -319.70024        27.70024  26022312.20023        -0.00023      -238.65023        20.10023
C24  25855463.00726         0.00026      1860.49226        37.00026                                                                
C14  24709728.48324        -0.00024     -2893.40024        28.30024                                                                
C09  38989198.81126        -0.00026      -389.75626        38.00026                                                                
E04  24385779.04825        -0.00025     -1260.25925        34.20025  24383885.25925        -0.00025      -941.04025        30.20025
E05  27781192.75225         0.00025      3035.40325        29.80025                                                                
E09  24130897.89924         0.00024      1615.48724        24.30024                                                                
E10  26731141.48825        -0.00025     -2951.54525        30.30025  26729177.24724        -0.00024     -2204.04124        25.80024
E11  23890402.89024        -0.00024     -2131.18624        27.80024                                                                
E27  28537654.56523        -0.00023      -260.25023        22.80023                                                                
E34  26709876.00923         0.00023      2739.90023        20.60023                                                                
E36  23640782.19927         0.00027       550.83427        42.80027  23638867.12525         0.00025       411.44325        35.00025
> 2022 10 03 10 27 45.4119595  0 31                      
G03  21432154.94726        -0.00026     -2253.86826        38.20026  21429729.62627        -0.00027     -1683.17027        41.50027
G04  20525803.80123         0.00023       624.60023        22.90023  20523347.30223         0.00023       468.70023        22.30023
G06  21991860.87124         0.00024      2692.22724        28.70024  21989468.22823         0.00023      2010.50023        20.50023
G17  22454200.20026        -0.00026     -2522.02726        36.80026                                                                
G19  21544386.75124        -0.00024     -1116.34824        29.10024                                                                
G31  23823069.95124        -0.00024     -1482.27924        29.40024                                                                
R15  23588363.33524        -0.00024     -1571.45024        24.50024
R24  23229026.69923         0.00023      4171.95023        20.10023
R23  19871132.92125         0.00025      1720.01225        35.30025
R07  19433318.71325        -0.00025     -1308.20825        34.10025
R08  20224843.05226         0.00026      2259.20526        40.00026
C41  21791464.60327         0.00027       805.12927        43.60027  21789587.30225         0.00025       606.57325        33.50025
C33  23019839.91625        -0.00025     -2042.17325        32.00025  23017911.35123        -0.00023     -1538.94123        20.50023
C32  25350772.44524         0.00024      2915.75024        28.40024                                                                
C30  24351796.52225         0.00025      2175.12225        33.10025  24349889.54223         0.00023      1639.55023        21.80023
C28  24176101.65325        -0.00025     -3196.26325        29.50025                        -0.00023     -2409.85023        18.70023
C27  22361470.79527        -0.00027      -735.14427        43.90027  22359587.49925        -0.00025      -554.13325        31.10025
C26  26024216.03024        -0.00024      -318.20024        27.30024                                                                
C24  25855075.82326         0.00026      1861.34526        36.90026                         0.00023      1401.45023        19.10023
C14  24710260.76224        -0.00024     -2890.05024        28.40024                                                                
C09  38989242.72926        -0.00026      -388.53926        37.40026                                                                
E04  24385997.44526        -0.00026     -1259.41126        35.80026  24384094.66224        -0.00024      -940.44824        29.00024
E05  27780597.51224         0.00024      3036.35224        28.30024                                                                
E09  24130555.08424         0.00024      1616.24324        25.10024                                                                
E10  26731663.87425        -0.00025     -2950.52525        29.80025  26729714.92324        -0.00024     -2203.18224        25.40024
E11  23890781.07624        -0.00024     -2130.17524        27.40024                                                                
E19                        -0.00023     -2954.10023        18.70023                                                                
E27  28537648.11723        -0.00023      -257.90023        22.00023                                                                
E36  23640647.74027         0.00027       551.73327        42.10027  23638731.46625         0.00025       412.07025        33.70025
G09                                                                  21789762.98125         0.00025      2122.04725        29.60025
E34                                                                                         0.00022      2046.90022        17.00022
> 2022 10 03 10 27 46.4119595  0 30                      
G03  21432581.85226        -0.00026     -2247.90526        37.20026  21430158.03026        -0.00026     -1678.73726        41.30026
G06  21991330.53824         0.00024      2695.80024        27.70024                                                                
G17  22454670.87426        -0.00026     -2516.25026        36.70026                                                                
G19  21544570.22424        -0.00024     -1110.60624        29.30024                                                                
G31  23823342.76224        -0.00024     -1476.80824        29.40024                                                                
R15  23588601.97024        -0.00024     -1569.70024        24.20024
R24  23228309.29523         0.00023      4180.05023        22.30023
R23  19870813.64126         0.00026      1725.55126        35.70026
R07  19433560.64525        -0.00025     -1302.46125        31.20025
R08  20224415.54826         0.00026      2265.02226        39.50026
C41  21791308.71027         0.00027       810.89427        43.60027  21789431.71025         0.00025       610.76025        33.60025
C33  23020214.65624        -0.00024     -2040.00024        26.00024  23018364.63725        -0.00025     -1534.50025        32.00025
C32  25350206.13724         0.00024      2922.50024        26.80024                                                                
C30  24351375.91325         0.00025      2180.94225        33.30025  24349465.93523         0.00023      1644.90023        21.00023
C28  24176726.42025        -0.00025     -3190.35225        30.30025                                                                
C27  22361608.70027        -0.00027      -729.53327        42.70027  22359728.10225        -0.00025      -550.22525        30.60025
C26  26024289.77824        -0.00024      -317.30024        25.50024                        -0.00023      -236.15023        19.50023
C24  25854716.97126         0.00026      1867.19126        36.30026                                                                
C09  38989316.17726        -0.00026      -382.43526        37.20026                                                                
C05  40446345.89724        -0.00024       -22.70024        27.30024                                                                
E04  24386229.18425        -0.00025     -1253.61325        33.30025  24384335.39525        -0.00025      -936.19325        30.00025
E05  27780024.30924         0.00024      3042.49524        27.20024                                                                
E09  24130247.79623         0.00023      1621.87323        23.40023                                                                
E10  26732241.27424        -0.00024     -2944.50024        27.70024  26730261.14523        -0.00023     -2197.80023        22.90023
E11  23891166.60924        -0.00024     -2124.25624        28.10024                                                                
E27  28537690.38723        -0.00023      -253.45023        21.00023                                                                
E34                         0.00023      2744.90023        19.50023                                                                
E36  23640541.91326         0.00026       557.61526        40.60026  23638626.53925         0.00025       416.30625        34.10025
G04                                                                  20523224.38723         0.00023       471.75023        22.20023
G09                                                                  21789219.15724         0.00024      2126.35924        29.10024
> 2022 10 03 10 27 47.4119595  0 29                      
G01  23513248.54323        -0.00023     -3649.70023        20.40023                                                                
G03  21433003.36726        -0.00026     -2242.21426        38.20026  21430585.24127        -0.00027     -1674.41327        42.60027
G06  21990833.78924         0.00024      2702.55024        27.10024  21988437.54823         0.00023      2018.75023        20.50023
G17  22455149.65026        -0.00026     -2510.56426        36.90026                                                                
G19  21544766.59525        -0.00025     -1105.33625        30.80025                                                                
G31  23823628.77125        -0.00025     -1471.29525        30.50025                                                                
R15  23588860.69824        -0.00024     -1558.70024        24.00024
R23  19870499.16626         0.00026      1730.97526        37.00026
R07  19433810.07925        -0.00025     -1296.89625        33.80025
R08  20223991.64826         0.00026      2270.73226        40.40026
C41  21791152.22527         0.00027       816.55527        44.40027  21789275.22525         0.00025       615.27125        34.50025
C39  40885969.05923        -0.00023     -1303.90023        23.20023                                                                
C33  23020559.42524        -0.00024     -2034.25024        25.60024  23018753.17525        -0.00025     -1530.20025        32.60025
C32  25349642.23424         0.00024      2925.80024        29.10024                                                                
C30  24350960.10725         0.00025      2186.42325        33.80025                                                                
C28  24177328.71025        -0.00025     -3184.42725        31.60025                                                                
C27  22361746.01227        -0.00027      -724.05527        43.00027  22359865.71325        -0.00025      -545.77825        32.10025
C24  25854357.82726         0.00026      1872.79526        37.50026                                                                
C14  24711370.30124        -0.00024     -2881.30024        28.10024                                                                
C09  38989388.73426        -0.00026      -376.53826        37.50026                                                                
E04  24386460.93125        -0.00025     -1247.75625        34.20025  24384574.33725        -0.00025      -931.69325        32.30025
E05  27779430.72624         0.00024      3048.84624        28.40024                                                                
E09  24129936.61924         0.00024      1628.04524        23.90024                                                                
E10  26732785.70424        -0.00024     -2938.34724        29.40024  26730826.86024        -0.00024     -2194.17424        24.70024
E11  23891568.03824        -0.00024     -2118.31824        28.20024                                                                
E36  23640436.99227         0.00027       563.26527        41.80027  23638519.52025         0.00025       420.54825        34.70025
G04                                                                  20523107.77423         0.00023       475.35023        22.20023
G09                                                                  21788677.73825         0.00025      2130.62025        30.10025
C26                                                                  26022466.74723        -0.00023      -230.95023        21.30023
> 2022 10 03 10 27 48.4119596  0 30                      
G01  23513963.31424        -0.00024     -3651.70024        25.00024                        -0.00022     -2730.90022        16.80022
G03  21433450.72226        -0.00026     -2244.55526        39.20026  21431041.89027        -0.00027     -1675.67327        41.90027
G06  21990320.90924         0.00024      2700.35024        27.00024  21987953.74823         0.00023      2017.90023        21.10023
G17  22455656.36426        -0.00026     -2512.75326        37.30026                                                                
G19  21544982.21125        -0.00025     -1108.09025        31.70025                                                                
G31  23823958.90825        -0.00025     -1473.92025        31.70025                                                                
R23  19870196.74126         0.00026      1728.02226        37.30026
R07  19434083.85525        -0.00025     -1299.48125        34.40025
R08  20223603.78226         0.00026      2268.05226        40.60026
C41  21791026.67827         0.00027       814.34227        44.30027  21789148.47825         0.00025       614.14025        34.70025
C33  23021001.68424        -0.00024     -2031.80024        27.70024  23019172.65025        -0.00025     -1531.30925        31.70025
C32  25349112.26624         0.00024      2925.95024        29.20024                                                                
C30  24350566.54525         0.00025      2184.19325        33.00025  24348658.96623         0.00023      1646.80023        22.20023
C28  24177960.13825        -0.00025     -3186.80425        30.60025                                                                
C27  22361914.86027        -0.00027      -726.46127        43.60027  22360034.86225        -0.00025      -546.99625        31.60025
C26  26024459.83324        -0.00024      -307.75024        26.40024  26022553.75323        -0.00023      -231.75023        20.40023
C24  25854027.52126         0.00026      1870.34026        38.20026                         0.00023      1410.65023        17.60023
C14  24711949.86525        -0.00025     -2879.95925        29.50025                                                                
C09  38989490.42926        -0.00026      -378.76026        37.60026                                                                
E04  24386729.01025        -0.00025     -1249.35425        34.10025  24384840.91825        -0.00025      -933.06925        31.60025
E05  27778889.66624         0.00024      3047.36224        27.00024                                                                
E09  24129659.07624         0.00024      1626.38224        24.10024                                                                
E10  26733363.46924        -0.00024     -2939.81724        29.20024  26731425.31124        -0.00024     -2195.46324        25.30024
E11  23892003.70224        -0.00024     -2120.18624        28.20024                                                                
E19                        -0.00023     -2942.45023        18.50023                                                                
E34  26707823.25023         0.00023      2752.20023        20.50023                                                                
E36  23640358.51227         0.00027       561.47427        42.30027  23638443.13825         0.00025       419.07225        34.80025
G04                                                                  20523014.30423         0.00023       472.85023        21.60023
G09                                                                  21788165.75825         0.00025      2129.25925        29.80025
C39                                                                                                                                
> 2022 10 03 10 27 49.4119596  0 29                      
G03  21433883.12926        -0.00026     -2254.00526        39.80026  21431470.39927        -0.00027     -1683.15527        42.40027
G06  21989824.25924         0.00024      2691.90024        28.10024  21987443.00723         0.00023      2010.25023        21.40023
G09                         0.00023      2845.70023        17.90023  21787623.83925         0.00025      2121.79725        29.50025
G17  22456134.63926        -0.00026     -2522.43526        38.50026                                                                
G19  21545194.86925        -0.00025     -1117.97125        32.60025                                                                
G31  23824238.72025        -0.00025     -1483.71325        32.10025                                                                
R23  19869889.25926         0.00026      1717.97826        36.60026
R21                        -0.00022     -4634.10022        15.90022
R07  19434327.09325        -0.00025     -1309.40125        34.40025
R08  20223180.28126         0.00026      2258.25426        40.40026
C41  21790871.79127         0.00027       804.83927        44.20027  21788993.89125         0.00025       606.34225        34.80025
C33  23021399.31424        -0.00024     -2041.70024        29.10024  23019565.78425        -0.00025     -1538.43425        32.10025
C32  25348548.16324         0.00024      2916.10524        29.40024                                                                
C30  24350156.53525         0.00025      2174.66225        31.60025  24348240.56123         0.00023      1638.75023        22.40023
C28  24178579.61525        -0.00025     -3196.13725        31.00025                                                                
C27  22362055.26927        -0.00027      -736.19627        43.70027  22360177.06925        -0.00025      -555.03125        32.70025
C24  25853669.97426         0.00026      1860.90126        38.80026                                                                
C14  24712508.18425        -0.00025     -2890.76025        30.10025                                                                
C09  38989562.48526        -0.00026      -387.87126        37.10026                                                                
C05  40446367.66024        -0.00024       -57.10024        28.80024                                                                
E04  24386965.35325        -0.00025     -1259.59625        32.60025  24385080.25825        -0.00025      -940.69625        32.00025
E05  27778304.57724         0.00024      3036.88924        28.60024                                                                
E09  24129352.19524         0.00024      1615.56524        24.80024                                                                
E10  26733920.58925        -0.00025     -2949.77625        29.80025  26731981.23224        -0.00024     -2203.06324        24.80024
E11  23892406.42924        -0.00024     -2130.69724        28.60024                                                                
E36  23640251.59227         0.00027       551.36827        41.70027  23638337.11725         0.00025       411.52125        35.40025
G04                                                                  20522894.49324         0.00024       466.28524        24.10024
C26                                                                                                                                
C39                                                                                                                                
> 2022 10 03 10 27 50.4119596  0 32                      
G03  21434307.30526        -0.00026     -2256.13926        40.70026  21431898.77227        -0.00027     -1684.11127        42.00027
G06  21989302.58924         0.00024      2692.30024        27.40024  21986930.63223         0.00023      2010.35023        21.10023
G17  22456616.07526        -0.00026     -2524.47026        39.60026                                                                
G19  21545398.69825        -0.00025     -1120.43225        32.90025                                                                
G31  23824523.79225        -0.00025     -1485.94525        32.00025                                                                
R15  23589699.35823        -0.00023     -1572.75023        20.10023
R24                         0.00023      4183.15023        18.20023
R23  19869553.16126         0.00026      1715.32426        36.60026
R07  19434579.78725        -0.00025     -1311.67925        33.30025
R08  20222750.64826         0.00026      2255.89326        39.90026
C41  21790718.26727         0.00027       802.85627        44.10027  21788839.76725         0.00025       605.66825        34.50025
C39  40886754.05624        -0.00024     -1307.65024        24.60024                                                                
C33  23021791.71224        -0.00024     -2046.70024        28.90024  23019953.98425        -0.00025     -1539.55225        30.50025
C32  25347987.22024         0.00024      2915.25024        28.90024                                                                
C30  24349740.39225         0.00025      2174.53425        31.00025  24347821.12123         0.00023      1638.30023        23.40023
C28  24179192.66025        -0.00025     -3198.10425        31.10025                                                                
C27  22362195.84127        -0.00027      -738.37727        43.60027  22360316.14225        -0.00025      -555.80625        32.00025
C26  26024582.82324        -0.00024      -318.75024        27.50024  26022674.04523        -0.00023      -240.15023        20.40023
C24  25853310.49226         0.00026      1858.75126        38.50026                                                                
C14  24713058.27325        -0.00025     -2890.05325        29.90025                                                                
C09  38989635.00426        -0.00026      -389.90226        37.00026                                                                
E04  24387215.94925        -0.00025     -1260.66625        31.70025  24385318.26225        -0.00025      -941.52325        31.90025
E05  27777729.84524         0.00024      3036.96024        27.60024                                                                
E09  24129051.77223         0.00023      1615.30023        23.00023                                                                
E10  26734480.87125        -0.00025     -2950.98125        29.70025  26732542.71324        -0.00024     -2203.52424        24.50024
E11  23892818.91324        -0.00024     -2131.21224        28.70024                                                                
E27                        -0.00022      -256.60022        16.90022                                                                
E34                         0.00023      2742.10023        18.90023                                                                
E36  23640147.23426         0.00026       549.91926        40.70026  23638232.75925         0.00025       410.47425        35.00025
G01                                                                                        -0.00023     -2733.60023        19.30023
G04                                                                  20522776.64423         0.00023       465.10023        20.90023
G09                                                                  21787084.18225         0.00025      2121.14925        29.50025
> 2022 10 03 10 27 51.4119595  0 28                      
G03  21434702.12126        -0.00026     -2263.70726        40.80026  21432299.58527        -0.00027     -1690.45227        42.80027
G06  21988765.65124         0.00024      2681.85024        27.50024  21986404.78623         0.00023      2002.60023        23.00023
G17  22457071.75026        -0.00026     -2532.43626        39.70026                                                                
G19  21545572.56725        -0.00025     -1128.55525        33.30025                                                                
G31  23824775.00825        -0.00025     -1494.15625        32.30025                                                                
R23  19869192.50126         0.00026      1707.09426        36.50026
R21  24213382.48123        -0.00023     -4634.85023        21.90023
R07  19434778.54025        -0.00025     -1319.81925        31.30025
R08  20222297.95126         0.00026      2247.89626        39.50026
C41  21790533.28527         0.00027       795.00127        44.00027  21788656.28425         0.00025       599.00125        35.40025
C33  23022154.15124        -0.00024     -2050.90024        28.80024  23020318.82225        -0.00025     -1546.03125        31.80025
C32  25347391.52324         0.00024      2906.80024        28.70024                                                                
C30  24349287.39624         0.00024      2167.40024        29.20024  24347379.51723         0.00023      1630.70023        23.10023
C28  24179773.64825        -0.00025     -3205.50025        31.70025                                                                
C27  22362307.95327        -0.00027      -746.43127        43.20027  22360430.35325        -0.00025      -562.55125        33.20025
C24  25852929.14726         0.00026      1851.17126        39.00026                         0.00022      1397.90022        17.20022
C14  24713590.39425        -0.00025     -2894.40325        30.10025                                                                
C09  38989682.06226        -0.00026      -397.26926        36.90026                                                                
E04  24387444.98025        -0.00025     -1269.42225        33.20025  24385529.60625        -0.00025      -947.86725        32.30025
E05  27777125.15324         0.00024      3027.98324        29.30024                                                                
E09  24128736.38024         0.00024      1606.18824        25.50024                                                                
E10  26735008.79624        -0.00024     -2959.26024        28.90024  26733071.53723        -0.00023     -2209.05023        23.20023
E11  23893196.04224        -0.00024     -2139.94924        28.80024                                                                
E36  23640013.21626         0.00026       541.40126        41.40026  23638098.74226         0.00026       404.24026        35.80026
G04                                                                  20522629.13623         0.00023       458.70023        23.40023
G09                                                                  21786514.56725         0.00025      2114.22025        29.70025
